[
  {
    "id": 1,
    "name": "Free Geek",
    "type": "donation",
    "category": "Electronics",
    "address": "1731 SE 10th Ave, Portland, OR 97214",
    "lat": 45.5091,
    "lng": -122.6548,
    "phone": "(503) 232-9350",
    "website": "https://www.freegeek.org",
    "hours": "Mon-Sat 10am-6pm",
    "accepts": ["computers", "laptops", "monitors", "electronics", "cables", "keyboards"],
    "description": "Nonprofit that recycles technology and provides access to computers, education, and job skills."
  },
  {
    "id": 2,
    "name": "Habitat for Humanity ReStore - North",
    "type": "donation",
    "category": "Building Materials",
    "address": "5205 N Lagoon Ave, Portland, OR 97217",
    "lat": 45.5627,
    "lng": -122.7447,
    "phone": "(503) 287-6000",
    "website": "https://portlandrestore.org",
    "hours": "Wed-Sat 9am-6pm, Sun 10am-5pm",
    "accepts": ["furniture", "appliances", "building materials", "doors", "windows", "cabinets", "lumber"],
    "description": "Accepts new and gently used building materials, furniture, and appliances to sell at reduced prices."
  },
  {
    "id": 3,
    "name": "Goodwill - SE Portland",
    "type": "donation",
    "category": "General",
    "address": "1943 SE 6th Ave, Portland, OR 97214",
    "lat": 45.5114,
    "lng": -122.6595,
    "phone": "(503) 239-1717",
    "website": "https://goodwill.org",
    "hours": "Mon-Sat 9am-8pm, Sun 10am-6pm",
    "accepts": ["clothing", "shoes", "books", "toys", "small appliances", "housewares", "furniture"],
    "description": "Accepts clothing, household items, and more to fund job training programs."
  },
  {
    "id": 4,
    "name": "Community Cycling Center",
    "type": "donation",
    "category": "Bicycles",
    "address": "1700 NE Alberta St, Portland, OR 97211",
    "lat": 45.5593,
    "lng": -122.6485,
    "phone": "(503) 287-8786",
    "website": "https://communitycyclingcenter.org",
    "hours": "Tue-Sat 10am-6pm",
    "accepts": ["bicycles", "bike parts", "helmets", "bike accessories"],
    "description": "Accepts bicycles and parts for refurbishment and community programs."
  },
  {
    "id": 5,
    "name": "Metro South Transfer Station",
    "type": "recycling",
    "category": "Hazardous Waste",
    "address": "2001 Washington St, Oregon City, OR 97045",
    "lat": 45.3588,
    "lng": -122.5926,
    "phone": "(503) 234-3000",
    "website": "https://www.oregonmetro.gov",
    "hours": "Mon-Sat 8am-5pm",
    "accepts": ["hazardous waste", "paint", "chemicals", "batteries", "fluorescent bulbs", "electronics"],
    "description": "Metro facility accepting household hazardous waste and recyclables."
  },
  {
    "id": 6,
    "name": "Far West Fibers",
    "type": "recycling",
    "category": "Paper & Cardboard",
    "address": "6120 NE Columbia Blvd, Portland, OR 97218",
    "lat": 45.5857,
    "lng": -122.6003,
    "phone": "(503) 283-5322",
    "website": "https://farwestfibers.com",
    "hours": "Mon-Fri 8am-4:30pm, Sat 8am-3pm",
    "accepts": ["cardboard", "paper", "magazines", "newspapers", "office paper"],
    "description": "Large-scale paper and cardboard recycling facility."
  },
  {
    "id": 7,
    "name": "Repair PDX",
    "type": "repair",
    "category": "Electronics",
    "address": "Various locations - check website",
    "lat": 45.5152,
    "lng": -122.6784,
    "phone": "See website",
    "website": "https://repairpdx.org",
    "hours": "Events held monthly",
    "accepts": ["electronics", "appliances", "clothing", "furniture", "bikes", "toys"],
    "description": "Community repair events where volunteers help fix broken items for free."
  },
  {
    "id": 8,
    "name": "Next Step Recycling",
    "type": "recycling",
    "category": "Electronics",
    "address": "519 SW Park Ave, Portland, OR 97205",
    "lat": 45.5203,
    "lng": -122.6822,
    "phone": "(503) 224-9113",
    "website": "https://nextsteprecycling.com",
    "hours": "Mon-Fri 10am-6pm, Sat 10am-5pm",
    "accepts": ["computers", "monitors", "printers", "electronics", "cell phones", "data destruction"],
    "description": "E-waste recycling with secure data destruction services."
  },
  {
    "id": 9,
    "name": "Scrap PDX",
    "type": "donation",
    "category": "Art Supplies",
    "address": "3901 N Williams Ave, Portland, OR 97227",
    "lat": 45.5520,
    "lng": -122.6662,
    "phone": "(503) 294-0769",
    "website": "https://scrapaction.org",
    "hours": "Tue-Sat 10am-6pm",
    "accepts": ["fabric", "paper", "craft supplies", "art materials", "office supplies", "creative reuse items"],
    "description": "Creative reuse center accepting donations of materials for art and education."
  },
  {
    "id": 10,
    "name": "Portland Repair Collective",
    "type": "repair",
    "category": "General",
    "address": "1930 SE 3rd Ave, Portland, OR 97214",
    "lat": 45.5101,
    "lng": -122.6637,
    "phone": "See website",
    "website": "https://portlandrepaircollective.org",
    "hours": "Check website for events",
    "accepts": ["electronics", "appliances", "textiles", "furniture", "bikes"],
    "description": "Free repair events teaching people to fix their own items."
  },
  {
    "id": 11,
    "name": "EcoCycle",
    "type": "recycling",
    "category": "Styrofoam",
    "address": "Multiple drop-off locations",
    "lat": 45.5231,
    "lng": -122.6765,
    "phone": "(503) 234-3000",
    "website": "https://www.oregonmetro.gov",
    "hours": "Varies by location",
    "accepts": ["styrofoam", "foam packaging", "foam blocks"],
    "description": "Metro-affiliated styrofoam recycling program."
  },
  {
    "id": 12,
    "name": "ReBuilding Center",
    "type": "donation",
    "category": "Building Materials",
    "address": "3625 N Mississippi Ave, Portland, OR 97227",
    "lat": 45.5525,
    "lng": -122.6748,
    "phone": "(503) 331-1877",
    "website": "https://rebuildingcenter.org",
    "hours": "Wed-Mon 9am-6pm",
    "accepts": ["lumber", "doors", "windows", "hardware", "plumbing", "electrical", "flooring", "cabinets"],
    "description": "Salvages and resells used building materials, keeping them out of landfills."
  },
  {
    "id": 13,
    "name": "The Bin - Electronics Recycling",
    "type": "recycling",
    "category": "Electronics",
    "address": "7450 NE Airport Way, Portland, OR 97218",
    "lat": 45.5879,
    "lng": -122.5856,
    "phone": "(503) 206-5793",
    "website": "https://thebin.com",
    "hours": "Mon-Sat 9am-5pm",
    "accepts": ["computers", "laptops", "phones", "tablets", "TVs", "electronics"],
    "description": "E-waste recycling with data destruction and asset recovery."
  },
  {
    "id": 14,
    "name": "Value Village - NE Portland",
    "type": "donation",
    "category": "General",
    "address": "11705 NE Halsey St, Portland, OR 97220",
    "lat": 45.5348,
    "lng": -122.5397,
    "phone": "(503) 253-1777",
    "website": "https://valuevillage.com",
    "hours": "Mon-Sat 9am-9pm, Sun 10am-7pm",
    "accepts": ["clothing", "furniture", "housewares", "books", "toys", "electronics"],
    "description": "Thrift store accepting donations of clothing and household items."
  },
  {
    "id": 15,
    "name": "Portland Composts!",
    "type": "disposal",
    "category": "Organic Waste",
    "address": "Multiple drop-off sites",
    "lat": 45.5231,
    "lng": -122.6765,
    "phone": "(503) 823-7202",
    "website": "https://www.portland.gov/composting",
    "hours": "Varies by location",
    "accepts": ["food scraps", "yard debris", "compostable materials"],
    "description": "City composting program with multiple drop-off locations."
  }
]
